[
   {
      "id":7065,
      "name":"污水處理站停車場",
      "car":25,
      "motor":30,
      "address":"黑沙環新填海區之污水處理站旁",
      "coordinates":{
         "lat":22.20797,
         "lng":113.558418
      }
   },
   {
      "id":6024,
      "name":"栢港停車場",
      "car":34,
      "motor":0,
      "address":"位於內港介乎於爹美刁施拿地大馬路及巴素打爾古街之間",
      "coordinates":{
         "lat":22.197767,
         "lng":113.536543
      }
   },
   {
      "id":6022,
      "name":"永寧街停車場",
      "car":0,
      "motor":55,
      "address":"永寧經屋地下",
      "coordinates":{
         "lat":22.213038,
         "lng":113.553445
      }
   },
   {
      "id":6033,
      "name":"下環街市停車場",
      "car":7,
      "motor":29,
      "address":"位於下環街市停車場內之停車場",
      "coordinates":{
         "lat":22.190831,
         "lng":113.534661
      }
   },
   {
      "id":7063,
      "name":"李加祿街停車場",
      "car":0,
      "motor":35,
      "address":"位於李加祿街、木瓜圍及貨倉街之間的大廈內的停車場",
      "coordinates":{
         "lat":22.191565,
         "lng":113.534707
      }
   },
   {
      "id":7067,
      "name":"台暉樓停車場",
      "car":57,
      "motor":104,
      "address":"位於台山中街、花地瑪教會街、青洲大馬路/青洲新路及蘇沙醫生街之間的台暉樓內的停車場",
      "coordinates":{
         "lat":22.21089,
         "lng":113.54623
      }
   },
   {
      "id":7044,
      "name":"氹仔客運碼頭停車場",
      "car":112,
      "motor":45,
      "address":"氹仔客運碼頭前地地下",
      "coordinates":{
         "lat":22.163001,
         "lng":113.57784
      }
   },
   {
      "id":6018,
      "name":"氹仔中央公園停車場",
      "car":955,
      "motor":1042,
      "address":"氹仔中央公園地下",
      "coordinates":{
         "lat":22.159096,
         "lng":113.554459
      }
   },
   {
      "id":6026,
      "name":"交通事務局大樓停車場",
      "car":3,
      "motor":62,
      "address":"交通事務局大樓1F~4F",
      "coordinates":{
         "lat":22.203975,
         "lng":113.55362
      }
   },
   {
      "id":6041,
      "name":"日昇樓停車場",
      "car":230,
      "motor":287,
      "address":"位於氹仔東北馬路社會房屋日昇樓內的停車場",
      "coordinates":{
         "lat":22.163642,
         "lng":113.56061
      }
   },
   {
      "id":7051,
      "name":"日暉大廈停車場",
      "car":23,
      "motor":117,
      "address":"位於氹仔聚龍街日暉大廈內的停車場",
      "coordinates":{
         "lat":22.163747,
         "lng":113.560235
      }
   },
   {
      "id":6005,
      "name":"宋玉生廣場停車場",
      "car":2,
      "motor":0,
      "address":"宋玉生公園下面",
      "coordinates":{
         "lat":22.18941,
         "lng":113.550893
      }
   },
   {
      "id":6028,
      "name":"何賢公園停車場",
      "car":58,
      "motor":427,
      "address":"何賢公園下面",
      "coordinates":{
         "lat":22.192484,
         "lng":113.548941
      }
   },
   {
      "id":6021,
      "name":"快富樓停車場",
      "car":117,
      "motor":78,
      "address":"筷子基社會房屋快富樓內",
      "coordinates":{
         "lat":22.206791,
         "lng":113.539039
      }
   },
   {
      "id":6038,
      "name":"快達樓停車場",
      "car":157,
      "motor":212,
      "address":"位於筷子基社會房屋快達樓內的停車場",
      "coordinates":{
         "lat":22.207792,
         "lng":113.543053
      }
   },
   {
      "id":7057,
      "name":"快盈大廈停車場",
      "car":26,
      "motor":74,
      "address":"位於俾若翰街快盈大廈內之停車場",
      "coordinates":{
         "lat":22.206975,
         "lng":113.539811
      }
   },
   {
      "id":7050,
      "name":"和諧廣場停車場",
      "car":180,
      "motor":132,
      "address":"路環石排灣蝴蝶谷大馬路及業興大馬路交界、業興大廈（第X座）對面的建築物內之停車場",
      "coordinates":{
         "lat":22.128618,
         "lng":113.563603
      }
   },
   {
      "id":6009,
      "name":"亞馬喇前地停車場",
      "car":24,
      "motor":344,
      "address":"亞馬喇前地下面",
      "coordinates":{
         "lat":22.189685,
         "lng":113.543387
      }
   },
   {
      "id":6030,
      "name":"居雅大廈停車場",
      "car":178,
      "motor":309,
      "address":"路環石排灣居雅大廈南面",
      "coordinates":{
         "lat":22.129113,
         "lng":113.560331
      }
   },
   {
      "id":7055,
      "name":"沙梨頭街市市政綜合大樓停車場",
      "car":57,
      "motor":179,
      "address":"沙梨頭街市市政綜合大樓第三層至第七層",
      "coordinates":{
         "lat":22.202514,
         "lng":113.537114
      }
   },
   {
      "id":6020,
      "name":"河邊新街停車場",
      "car":37,
      "motor":96,
      "address":"河邊新街、貨倉巷、比厘喇馬忌士街及鹽巷之間的大廈內",
      "coordinates":{
         "lat":22.190346,
         "lng":113.532811
      }
   },
   {
      "id":6035,
      "name":"青葱大廈停車場",
      "car":13,
      "motor":195,
      "address":"位於青洲坊青葱大廈內",
      "coordinates":{
         "lat":22.212203,
         "lng":113.541344
      }
   },
   {
      "id":6019,
      "name":"青翠樓停車場",
      "car":264,
      "motor":507,
      "address":"青洲新馬路青洲社屋",
      "coordinates":{
         "lat":22.212427,
         "lng":113.537752
      }
   },
   {
      "id":7058,
      "name":"青濤大廈停車場",
      "car":50,
      "motor":69,
      "address":"位於青洲大馬路青濤大廈內的停車場",
      "coordinates":{
         "lat":22.21084,
         "lng":113.540803
      }
   },
   {
      "id":6039,
      "name":"青泉樓停車場",
      "car":8,
      "motor":20,
      "address":"位於青洲社會房屋青泉樓內的停車場",
      "coordinates":{
         "lat":22.212236,
         "lng":113.538954
      }
   },
   {
      "id":6040,
      "name":"青怡大廈停車場",
      "car":120,
      "motor":187,
      "address":"位於青怡大廈內之停車場",
      "coordinates":{
         "lat":22.210879,
         "lng":113.543465
      }
   },
   {
      "id":7064,
      "name":"青茂口岸停車場",
      "car":79,
      "motor":136,
      "address":"位於鴨涌馬路及何賢紳士大馬路之間的青茂口岸澳門邊檢大樓內的停車場",
      "coordinates":{
         "lat":22.212669,
         "lng":113.541567
      }
   },
   {
      "id":7059,
      "name":"青洲坊大廈停車場",
      "car":1052,
      "motor":1381,
      "address":"位於青洲坊大廈內",
      "coordinates":{
         "lat":22.212053,
         "lng":113.542915
      }
   },
   {
      "id":6043,
      "name":"松樹尾停車場",
      "car":101,
      "motor":182,
      "address":"位於氹仔消防局前地及律政司街旁的停車場",
      "coordinates":{
         "lat":22.154206,
         "lng":113.557228
      }
   },
   {
      "id":6023,
      "name":"栢麗停車場",
      "car":25,
      "motor":0,
      "address":"關閘栢麗大廈",
      "coordinates":{
         "lat":22.21356,
         "lng":113.549212
      }
   },
   {
      "id":6027,
      "name":"栢威停車場",
      "car":0,
      "motor":0,
      "address":"鏡湖馬路栢威大廈",
      "coordinates":{
         "lat":22.198745,
         "lng":113.543873
      }
   },
   {
      "id":6042,
      "name":"栢景停車場",
      "car":2,
      "motor":0,
      "address":"得勝花園旁",
      "coordinates":{
         "lat":22.198923,
         "lng":113.549069
      }
   },
   {
      "id":7062,
      "name":"栢力停車場",
      "car":182,
      "motor":0,
      "address":"海港街",
      "coordinates":{
         "lat":22.196891,
         "lng":113.554462
      }
   },
   {
      "id":6008,
      "name":"栢佳停車場",
      "car":1,
      "motor":0,
      "address":"友誼廣場下面",
      "coordinates":{
         "lat":22.190431,
         "lng":113.541691
      }
   },
   {
      "id":6002,
      "name":"栢寧停車場",
      "car":0,
      "motor":0,
      "address":"新馬路市政署後面",
      "coordinates":{
         "lat":22.193034,
         "lng":113.53938
      }
   },
   {
      "id":6001,
      "name":"南灣(栢湖)停車場",
      "car":0,
      "motor":0,
      "address":"區華利前地",
      "coordinates":{
         "lat":22.190642,
         "lng":113.539604
      }
   },
   {
      "id":6003,
      "name":"栢濤停車場",
      "car":24,
      "motor":0,
      "address":"佛山街",
      "coordinates":{
         "lat":22.190532,
         "lng":113.545614
      }
   },
   {
      "id":6011,
      "name":"栢樂停車場",
      "car":49,
      "motor":40,
      "address":"外港客運碼頭對面",
      "coordinates":{
         "lat":22.198262,
         "lng":113.558809
      }
   },
   {
      "id":6012,
      "name":"栢蕙停車場",
      "car":9,
      "motor":0,
      "address":"荷蘭園正街栢蕙花園",
      "coordinates":{
         "lat":22.202819,
         "lng":113.550743
      }
   },
   {
      "id":6034,
      "name":"馬六甲街停車場",
      "car":37,
      "motor":496,
      "address":"馬六甲街旁介乎羅理基博士大馬路與高美士街之間",
      "coordinates":{
         "lat":22.195969,
         "lng":113.553339
      }
   },
   {
      "id":6014,
      "name":"祐漢公園停車場",
      "car":75,
      "motor":329,
      "address":"祐漢公園下面",
      "coordinates":{
         "lat":22.211408,
         "lng":113.551913
      }
   },
   {
      "id":6037,
      "name":"黑橋街停車場",
      "car":25,
      "motor":39,
      "address":"位於黑橋街氹仔平民新村第十座及第十一座內之停車場",
      "coordinates":{
         "lat":22.154436,
         "lng":113.555744
      }
   },
   {
      "id":7053,
      "name":"港珠澳大橋邊檢大樓西停車場",
      "car":2990,
      "motor":1951,
      "address":"位於港珠澳大橋澳門邊檢大樓西側的停車場",
      "coordinates":{
         "lat":22.201163,
         "lng":113.567423
      }
   },
   {
      "id":7052,
      "name":"港珠澳大橋邊檢大樓東停車場",
      "car":2994,
      "motor":0,
      "address":"位於港珠澳大橋澳門邊檢大樓東側的停車場",
      "coordinates":{
         "lat":22.199172,
         "lng":113.581295
      }
   },
   {
      "id":7061,
      "name":"海灣南街停車場",
      "car":99,
      "motor":191,
      "address":"位於沙梨頭南街、沙梨頭海邊大馬路、沙梨頭新街及海灣南街之間的大廈內的停車場",
      "coordinates":{
         "lat":22.206754,
         "lng":113.543542
      }
   },
   {
      "id":7066,
      "name":"望德樓停車場",
      "car":232,
      "motor":198,
      "address":"位於望善街、慕拉士大馬路及俾利喇街之間的望德樓內的停車場",
      "coordinates":{
         "lat":22.206918,
         "lng":113.551492
      }
   },
   {
      "id":6007,
      "name":"望善樓停車場",
      "car":7,
      "motor":158,
      "address":"望廈社屋第一期",
      "coordinates":{
         "lat":22.206768,
         "lng":113.552019
      }
   },
   {
      "id":6025,
      "name":"望賢樓停車場",
      "car":3,
      "motor":134,
      "address":"望廈社會房屋望賢樓內之停車場",
      "coordinates":{
         "lat":22.205628,
         "lng":113.549999
      }
   },
   {
      "id":6029,
      "name":"湖畔大廈停車場",
      "car":367,
      "motor":986,
      "address":"氹仔湖畔大廈內",
      "coordinates":{
         "lat":22.159631,
         "lng":113.560615
      }
   },
   {
      "id":6006,
      "name":"華士古達嘉馬花園停車場",
      "car":0,
      "motor":14,
      "address":"華士古達嘉馬花園下面",
      "coordinates":{
         "lat":22.196392,
         "lng":113.546409
      }
   },
   {
      "id":6010,
      "name":"澳門科學館停車場",
      "car":341,
      "motor":400,
      "address":"澳門科學館下面",
      "coordinates":{
         "lat":22.187594,
         "lng":113.557198
      }
   },
   {
      "id":6031,
      "name":"樂群樓停車場",
      "car":167,
      "motor":483,
      "address":"位於路環石排灣樂群樓內之停車場",
      "coordinates":{
         "lat":22.12967,
         "lng":113.561468
      }
   },
   {
      "id":7054,
      "name":"澳門新批發市場停車場",
      "car":35,
      "motor":48,
      "address":"澳門新批發市場地庫第二層及第三層",
      "coordinates":{
         "lat":22.2106,
         "lng":113.534641
      }
   },
   {
      "id":7056,
      "name":"蝴蝶谷停車場",
      "car":344,
      "motor":158,
      "address":"石排灣社區綜合大樓第三層至第五層",
      "coordinates":{
         "lat":22.128486,
         "lng":113.562053
      }
   },
   {
      "id":6032,
      "name":"業興大廈停車場",
      "car":261,
      "motor":454,
      "address":"路環石排灣業興大廈北面",
      "coordinates":{
         "lat":22.129754,
         "lng":113.56488
      }
   },
   {
      "id":6015,
      "name":"蓮花路停車場",
      "car":91,
      "motor":145,
      "address":"蓮花路路氹城邊檢大樓旁",
      "coordinates":{
         "lat":22.138734,
         "lng":113.560313
      }
   },
   {
      "id":6004,
      "name":"藝園停車場",
      "car":72,
      "motor":258,
      "address":"藝園下面",
      "coordinates":{
         "lat":22.189844,
         "lng":113.54678
      }
   },
   {
      "id":6013,
      "name":"麗都停車場",
      "car":14,
      "motor":9,
      "address":"美副將與提督馬路交界",
      "coordinates":{
         "lat":22.20729,
         "lng":113.545729
      }
   },
   {
      "id":7060,
      "name":"關閘綜合體育場館停車場",
      "car":330,
      "motor":357,
      "address":"位於關閘綜合體育場館內的停車場",
      "coordinates":{
         "lat":22.2152235,
         "lng":113.5472751
      }
   }
]
